[{"objectid":"0000001","applicant":"Testagrossa","facilitytype":"Shop","cnn":"0000000","locationdescription":"Steet: Corso Calatafimi 795","address":"Corso Calatafimi 795","blocklot":"0000000","block":"0000","lot":"000","permit":"00000-00000","status":"OPEN","fooditems":"Panelle: Crocche: Milza","x":"353304.655","y":"4218422.567","latitude":"38.101716","longitude":"13.326903","schedule":"Not_available","received":"2020-09-20","priorpermit":"0","expirationdate":"2020-09-20T00:00:00.000","location":{"latitude":"38.101716","longitude":"13.326903","human_address":"{\"address\": \"\", \"city\": \"\", \"state\": \"\", \"zip\": \"\"}"},":@computed_region_yftq_j783":"00",":@computed_region_p5aj_wyqh":"0",":@computed_region_rxqg_mtj9":"0",":@computed_region_bh8s_q3mv":"00000",":@computed_region_fyvs_ahh9":"0"}
  ,{"objectid":"0000002","applicant":"Antica Focacceria San Francesco","facilitytype":"Shop","cnn":"0000000","locationdescription":"Street: Via Alessandro Paternostro 58","address":"Via Alessandro Paternostro 58","blocklot":"0000000","block":"0000","lot":"000","permit":"00000-00000","status":"OPEN","fooditems":"Panelle: Crocche: Milza: Sfincione","x":"356776.731","y":"4219996.415","latitude":"38.116452", "longitude":"13.366172","schedule":"Not_available","received":"2020-09-20","priorpermit":"0","expirationdate":"2020-09-20T00:00:00.000","location":{"latitude":"38.116452","longitude":"13.366172","human_address":"{\"address\": \"\", \"city\": \"\", \"state\": \"\", \"zip\": \"\"}"},":@computed_region_yftq_j783":"00",":@computed_region_p5aj_wyqh":"0",":@computed_region_rxqg_mtj9":"0",":@computed_region_bh8s_q3mv":"00000",":@computed_region_fyvs_ahh9":"0"}
  ,{"objectid":"0000003","applicant":"Di Martino","facilitytype":"Shop","cnn":"0000000","locationdescription":"Street: Via Mazzini 54","address":"Via Mazzini 54","blocklot":"0000000","block":"0000","lot":"000","permit":"00000-00000","status":"OPEN","fooditems":"Panelle: Crocche","x":"355790.647","y":"4221220.187","latitude":"38.12732","longitude":"13.35468","schedule":"Not_available","received":"2020-09-20","priorpermit":"0","expirationdate":"2020-09-20T00:00:00.000","location":{"latitude":"38.12732","longitude":"13.35468","human_address":"{\"address\": \"\", \"city\": \"\", \"state\": \"\", \"zip\": \"\"}"},":@computed_region_yftq_j783":"00",":@computed_region_p5aj_wyqh":"0",":@computed_region_rxqg_mtj9":"0",":@computed_region_bh8s_q3mv":"00000",":@computed_region_fyvs_ahh9":"0"}
  ,{"objectid":"0000004","applicant":"Nni Franco U Vastiddaru","facilitytype":"Shop","cnn":"0000000","locationdescription":"Street: Corso Vittorio Emanuele 102","address":"Corso Vittorio Emanuele 102","blocklot":"0000000","block":"0000","lot":"000","permit":"00000-00000","status":"OPEN","fooditems":"Panelle: Crocche","x":"356848.295","y":"4220156.215","latitude":"38.117903","longitude":"13.366956","schedule":"Not_available","received":"2020-09-20","priorpermit":"0","expirationdate":"2020-09-20T00:00:00.000","location":{"latitude":"38.117903","longitude":"13.366956","human_address":"{\"address\": \"\", \"city\": \"\", \"state\": \"\", \"zip\": \"\"}"},":@computed_region_yftq_j783":"00",":@computed_region_p5aj_wyqh":"0",":@computed_region_rxqg_mtj9":"0",":@computed_region_bh8s_q3mv":"00000",":@computed_region_fyvs_ahh9":"0"}
  ,{"objectid":"0000005","applicant":"Focacceria Basile","facilitytype":"Shop","cnn":"0000000","locationdescription":"Street: Via Bara all’Olivella 76","address":"Via Bara all’Olivella 76","blocklot":"0000000","block":"0000","lot":"000","permit":"00000-00000","status":"OPEN","fooditems":"Panelle: Crocche: Milza","x":"356141.609","y":"4220470.158","latitude":"38.120619","longitude":"13.358834","schedule":"Not_available","received":"2020-09-20","priorpermit":"0","expirationdate":"2020-09-20T00:00:00.000","location":{"latitude":"38.120619","longitude":"13.358834","human_address":"{\"address\": \"\", \"city\": \"\", \"state\": \"\", \"zip\": \"\"}"},":@computed_region_yftq_j783":"00",":@computed_region_p5aj_wyqh":"0",":@computed_region_rxqg_mtj9":"0",":@computed_region_bh8s_q3mv":"00000",":@computed_region_fyvs_ahh9":"0"}
  ,{"objectid":"0000006","applicant":"Porta Carbone","facilitytype":"Shop","cnn":"0000000","locationdescription":"Street: Via Cala 62","address":"Via Cala 62","blocklot":"0000000","block":"0000","lot":"000","permit":"00000-00000","status":"OPEN","fooditems":"Panelle: Milza","x":"356951.896","y":"4220233.091","latitude":"38.118612","longitude":"13.368122","schedule":"Not_available","received":"2020-09-20","priorpermit":"0","expirationdate":"2020-09-20T00:00:00.000","location":{"latitude":"38.118612","longitude":"13.368122","human_address":"{\"address\": \"\", \"city\": \"\", \"state\": \"\", \"zip\": \"\"}"},":@computed_region_yftq_j783":"00",":@computed_region_p5aj_wyqh":"0",":@computed_region_rxqg_mtj9":"0",":@computed_region_bh8s_q3mv":"00000",":@computed_region_fyvs_ahh9":"0"}
  ,{"objectid":"0000007","applicant":"Antichi Sapori Palermitani","facilitytype":"Shop","cnn":"0000000","locationdescription":"Street: Via Messina Marine 683","address":"Via Messina Marine 683","blocklot":"0000000","block":"0000","lot":"000","permit":"00000-00000","status":"OPEN","fooditems":"Panelle: Crocche: Milza","x":"361222.197","y":"4217809.649","latitude":"38.097445","longitude":"13.417291","schedule":"Not_available","received":"2020-09-20","priorpermit":"0","expirationdate":"2020-09-20T00:00:00.000","location":{"latitude":"38.097445","longitude":"13.417291","human_address":"{\"address\": \"\", \"city\": \"\", \"state\": \"\", \"zip\": \"\"}"},":@computed_region_yftq_j783":"00",":@computed_region_p5aj_wyqh":"0",":@computed_region_rxqg_mtj9":"0",":@computed_region_bh8s_q3mv":"00000",":@computed_region_fyvs_ahh9":"0"}
  ,{"objectid":"0000008","applicant":"Osteria Lo Bianco","facilitytype":"Shop","cnn":"0000000","locationdescription":"Street: Via Notarbartolo 12","address":"Via Notarbartolo 12","blocklot":"0000000","block":"0000","lot":"000","permit":"00000-00000","status":"OPEN","fooditems":"Panelle: Crocche","x":"355267.968","y":"4221904.358","latitude":"38.1334","longitude":"13.34858","schedule":"Not_available","received":"2020-09-20","priorpermit":"0","expirationdate":"2020-09-20T00:00:00.000","location":{"latitude":"38.1334","longitude":"13.34858","human_address":"{\"address\": \"\", \"city\": \"\", \"state\": \"\", \"zip\": \"\"}"},":@computed_region_yftq_j783":"00",":@computed_region_p5aj_wyqh":"0",":@computed_region_rxqg_mtj9":"0",":@computed_region_bh8s_q3mv":"00000",":@computed_region_fyvs_ahh9":"0"}
  ,{"objectid":"0000009","applicant":"Nino u' Ballerino","facilitytype":"Truck","cnn":"0000000","locationdescription":"Street: Corso C. Finocchiaro Aprile 76/78","address":"Corso C. Finocchiaro Aprile 76/78","blocklot":"0000000","block":"0000","lot":"000","permit":"00000-00000","status":"OPEN","fooditems":"Panelle: Milza","x":"355283.868","y":"4220275.251","latitude":"38.118726","longitude":"13.349092","schedule":"Not_available","received":"2020-09-20","priorpermit":"0","expirationdate":"2020-09-20T00:00:00.000","location":{"latitude":"38.118726", "longitude":"13.349092","human_address":"{\"address\": \"\", \"city\": \"\", \"state\": \"\", \"zip\": \"\"}"},":@computed_region_yftq_j783":"00",":@computed_region_p5aj_wyqh":"0",":@computed_region_rxqg_mtj9":"0",":@computed_region_bh8s_q3mv":"00000",":@computed_region_fyvs_ahh9":"0"}]